{
  "type": "GoogleCloudRegions",
  "regions": [
    {
      "name": "to-be-announced",
      "longName": "Mexico",
      "type": "Region",
      "status": "unavailable",
      "size": 1.0,
      "lat": 23.82956741227922,
      "lng": -102.26651143446024
    },
    {
      "name": "to-be-announced",
      "longName": "Malaysia",
      "type": "Region",
      "status": "unavailable",
      "size": 1.0,
      "lat": 3.7454546610534996,
      "lng": 101.57443056527343
    },
    {
      "name": "to-be-announced",
      "longName": "Thailand",
      "type": "Region",
      "status": "unavailable",
      "size": 1.0,
      "lat": 15.324615882261575,
      "lng": 101.03208293726394
    },
    {
      "name": "to-be-announced",
      "longName": "New Zealand",
      "type": "Region",
      "status": "unavailable",
      "size": 1.0,
      "lat": -42.67868146042933,
      "lng": 172.06769022607816
    },
    {
      "name": "to-be-announced",
      "longName": "Greece",
      "type": "Region",
      "status": "unavailable",
      "size": 1.0,
      "lat": 39.427909452989944,
      "lng": 22.53593695565274
    },
    {
      "name": "to-be-announced",
      "longName": "Norway",
      "type": "Region",
      "status": "unavailable",
      "size": 1.0,
      "lat": 61.98146375747581,
      "lng": 9.384622597543382
    },
    {
      "name": "to-be-announced",
      "longName": "South Africa",
      "type": "Region",
      "status": "unavailable",
      "size": 1.0,
      "lat": -30.68122231429717,
      "lng": 23.623517052180652
    },
    {
      "name": "to-be-announced",
      "longName": "Austria",
      "type": "Region",
      "status": "unavailable",
      "size": 1.0,
      "lat": 47.599558399099024,
      "lng": 14.159826702305013
    },
    {
      "name": "to-be-announced",
      "longName": "Sweden",
      "type": "Region",
      "status": "unavailable",
      "size": 1.0,
      "lat": 62.88408440281544,
      "lng": 16.711555149726877
    },
    {
      "name": "asia-east1",
      "longName": "Changhua County",
      "type": "Region",
      "status": "available",
      "size": 1.0,
      "lat": 24.0755667,
      "lng": 120.5444667
    },
    {
      "name": "asia-east2",
      "longName": "Hong Kong",
      "type": "Region",
      "status": "available",
      "size": 1.0,
      "lat": 22.350627,
      "lng": 114.1849161
    },
    {
      "name": "asia-northeast1",
      "longName": "Tokyo",
      "type": "Region",
      "status": "available",
      "size": 1.0,
      "lat": 35.6821936,
      "lng": 139.762221
    },
    {
      "name": "asia-northeast2",
      "longName": "Osaka",
      "type": "Region",
      "status": "available",
      "size": 1.0,
      "lat": 34.6198813,
      "lng": 135.490357
    },
    {
      "name": "asia-northeast3",
      "longName": "Seoul",
      "type": "Region",
      "status": "available",
      "size": 1.0,
      "lat": 37.5666791,
      "lng": 126.9782914
    },
    {
      "name": "asia-south1",
      "longName": "Mumbai",
      "type": "Region",
      "status": "available",
      "size": 1.0,
      "lat": 19.0785451,
      "lng": 72.878176
    },
    {
      "name": "asia-south2",
      "longName": "Delhi",
      "type": "Region",
      "status": "available",
      "size": 1.0,
      "lat": 28.6273928,
      "lng": 77.1716954
    },
    {
      "name": "asia-southeast1",
      "longName": "Jurong West",
      "type": "Region",
      "status": "available",
      "size": 1.0,
      "lat": 1.3434392,
      "lng": 103.7058663
    },
    {
      "name": "asia-southeast2",
      "longName": "Jakarta",
      "type": "Region",
      "status": "available",
      "size": 1.0,
      "lat": -6.175247,
      "lng": 106.8270488
    },
    {
      "name": "australia-southeast1",
      "longName": "Sydney",
      "type": "Region",
      "status": "available",
      "size": 1.0,
      "lat": -33.8698439,
      "lng": 151.2082848
    },
    {
      "name": "australia-southeast2",
      "longName": "Melbourne",
      "type": "Region",
      "status": "available",
      "size": 1.0,
      "lat": -37.8142454,
      "lng": 144.9631732
    },
    {
      "name": "europe-north1",
      "longName": "Finland",
      "type": "Region",
      "status": "available",
      "size": 1.0,
      "lat": 60.5688901,
      "lng": 27.1881877
    },
    {
      "name": "europe-central2",
      "longName": "Warsaw",
      "type": "Region",
      "status": "available",
      "size": 1.0,
      "lat": 52.2319581,
      "lng": 21.0067249
    },
    {
      "name": "europe-southwest1",
      "longName": "Madrid",
      "type": "Region",
      "status": "available",
      "size": 1.0,
      "lat": 40.4167047,
      "lng": -3.7035825
    },
    {
      "name": "europe-west1",
      "longName": "St. Ghislain",
      "type": "Region",
      "status": "available",
      "size": 1.0,
      "lat": 50.4477484,
      "lng": 3.8195241
    },
    {
      "name": "europe-west2",
      "longName": "London",
      "type": "Region",
      "status": "available",
      "size": 1.0,
      "lat": 51.5074456,
      "lng": -0.1277653
    },
    {
      "name": "europe-west3",
      "longName": "Frankfurt",
      "type": "Region",
      "status": "available",
      "size": 1.0,
      "lat": 50.1106444,
      "lng": 8.6820917
    },
    {
      "name": "europe-west4",
      "longName": "Eemshaven",
      "type": "Region",
      "status": "available",
      "size": 1.0,
      "lat": 53.44847365,
      "lng": 6.849962702578557
    },
    {
      "name": "europe-west6",
      "longName": "Zurich",
      "type": "Region",
      "status": "available",
      "size": 1.0,
      "lat": 47.3744489,
      "lng": 8.5410422
    },
    {
      "name": "europe-west8",
      "longName": "Milan",
      "type": "Region",
      "status": "available",
      "size": 1.0,
      "lat": 45.4641943,
      "lng": 9.1896346
    },
    {
      "name": "europe-west9",
      "longName": "Paris",
      "type": "Region",
      "status": "available",
      "size": 1.0,
      "lat": 48.8534951,
      "lng": 2.3483915
    },
    {
      "name": "europe-west10",
      "longName": "Berlin",
      "type": "Region",
      "status": "available",
      "size": 1.0,
      "lat": 52.52043451228784,
      "lng": 13.404174789874146
    },
    {
      "name": "europe-west12",
      "longName": "Turin",
      "type": "Region",
      "status": "available",
      "size": 1.0,
      "lat": 45.0677551,
      "lng": 7.6824892
    },
    {
      "name": "northamerica-northeast1",
      "longName": "Montr\u00e9al",
      "type": "Region",
      "status": "available",
      "size": 1.0,
      "lat": 45.5031824,
      "lng": -73.5698065
    },
    {
      "name": "northamerica-northeast2",
      "longName": "Toronto",
      "type": "Region",
      "status": "available",
      "size": 1.0,
      "lat": 43.6534817,
      "lng": -79.3839347
    },
    {
      "name": "southamerica-east1",
      "longName": "Osasco",
      "type": "Region",
      "status": "available",
      "size": 1.0,
      "lat": -23.5324859,
      "lng": -46.7916801
    },
    {
      "name": "southamerica-west1",
      "longName": "Santiago",
      "type": "Region",
      "status": "available",
      "size": 1.0,
      "lat": 9.8694792,
      "lng": -83.7980749
    },
    {
      "name": "us-central1",
      "longName": "Council Bluffs",
      "type": "Region",
      "status": "available",
      "size": 1.0,
      "lat": 41.258841,
      "lng": -95.8519484
    },
    {
      "name": "us-east1",
      "longName": "Moncks Corner",
      "type": "Region",
      "status": "available",
      "size": 1.0,
      "lat": 33.1960027,
      "lng": -80.0131374
    },
    {
      "name": "us-east4",
      "longName": "Ashburn",
      "type": "Region",
      "status": "available",
      "size": 1.0,
      "lat": 39.0437192,
      "lng": -77.4874899
    },
    {
      "name": "us-east5",
      "longName": "Columbus",
      "type": "Region",
      "status": "available",
      "size": 1.0,
      "lat": 39.9622601,
      "lng": -83.0007065
    },
    {
      "name": "us-west1",
      "longName": "The Dalles",
      "type": "Region",
      "status": "available",
      "size": 1.0,
      "lat": 45.6015056,
      "lng": -121.1841587
    },
    {
      "name": "us-west2",
      "longName": "Los Angeles",
      "type": "Region",
      "status": "available",
      "size": 1.0,
      "lat": 34.0536909,
      "lng": -118.242766
    },
    {
      "name": "us-west3",
      "longName": "Salt Lake City",
      "type": "Region",
      "status": "available",
      "size": 1.0,
      "lat": 40.7596198,
      "lng": -111.886797
    },
    {
      "name": "us-west4",
      "longName": "Las Vegas",
      "type": "Region",
      "status": "available",
      "size": 1.0,
      "lat": 36.1672559,
      "lng": -115.148516
    },
    {
      "name": "us-south1",
      "longName": "Dallas",
      "type": "Region",
      "status": "available",
      "size": 1.0,
      "lat": 32.7762719,
      "lng": -96.7968559
    },
    {
      "name": "me-central1",
      "longName": "Doha",
      "type": "Region",
      "status": "available",
      "size": 1.0,
      "lat": 25.2856329,
      "lng": 51.5264162
    },
    {
      "name": "me-central2",
      "longName": "Dammam",
      "type": "Region",
      "status": "available",
      "size": 1.0,
      "lat": 26.425731960754586,
      "lng": 50.08094178620547
    },
    {
      "name": "me-west1",
      "longName": "Tel Aviv",
      "type": "Region",
      "status": "available",
      "size": 1.0,
      "lat": 32.0852997,
      "lng": 34.7818064
    }
  ]
}
